[
  {
    "id": "jp-nagar-1",
    "name": "JP Nagar Phase 1",
    "lat": 12.9123,
    "lng": 77.5855,
    "outstanding": 245000,
    "decliningSKUs": 8,
    "retailerCount": 72,
    "color": "#ef4444"
  },
  {
    "id": "jp-nagar-2",
    "name": "JP Nagar Phase 2",
    "lat": 12.9058,
    "lng": 77.5921,
    "outstanding": 178000,
    "decliningSKUs": 5,
    "retailerCount": 65,
    "color": "#f59e0b"
  },
  {
    "id": "jp-nagar-3",
    "name": "JP Nagar Phase 3",
    "lat": 12.8992,
    "lng": 77.5987,
    "outstanding": 92000,
    "decliningSKUs": 3,
    "retailerCount": 48,
    "color": "#22c55e"
  },
  {
    "id": "jayanagar-4",
    "name": "Jayanagar 4th Block",
    "lat": 12.9275,
    "lng": 77.5932,
    "outstanding": 312000,
    "decliningSKUs": 11,
    "retailerCount": 81,
    "color": "#ef4444"
  },
  {
    "id": "banashankari-2",
    "name": "Banashankari 2nd Stage",
    "lat": 12.9258,
    "lng": 77.5621,
    "outstanding": 156000,
    "decliningSKUs": 6,
    "retailerCount": 59,
    "color": "#f59e0b"
  },
  {
    "id": "banashankari-3",
    "name": "Banashankari 3rd Stage",
    "lat": 12.9189,
    "lng": 77.5554,
    "outstanding": 87000,
    "decliningSKUs": 2,
    "retailerCount": 41,
    "color": "#22c55e"
  },
  {
    "id": "basavanagudi",
    "name": "Basavanagudi",
    "lat": 12.9421,
    "lng": 77.5723,
    "outstanding": 134000,
    "decliningSKUs": 4,
    "retailerCount": 53,
    "color": "#f59e0b"
  }
]
